{"employees":[
        {"name":"Max Power",
         "title": "President",
         "department": "Executive Board",
         "phone": "555-555-5555 ext 200",
         "location": "12th floor, suite A"
        },
        {"name":"Adam McKinlay",
         "title": "Director of Innovation",
         "department": "Executive Board",
         "phone": "555-555-5555 ext 201",
         "location": "12th floor, suite B"
        },
        {"name":"Jane McDonald",
         "title": "Director of Finance",
         "department": "Executive Board",
         "phone": "555-555-5555 ext 202",
         "location": "12th floor, suite C"
        },
        {"name":"Mila Galvan",
         "title": "Director of Human Resources",
         "department": "Executive Board",
         "phone": "555-555-5555 ext 203",
         "location": "12th floor, suite D"
        },
        {"name":"Jayda Whitmore",
         "title": "Director of Marketing",
         "department": "Executive Board",
         "phone": "555-555-5555 ext 204",
         "location": "12th floor, suite E"
        },
        {"name":"Yusef Wood",
         "title": "Vice President",
         "department": "Executive Board",
         "phone": "555-555-5555 ext 205",
         "location": "12th floor, suite F"
        },
        {"name":"Roger Parker",
         "title": "Senior Vice President",
         "department": "Executive Board",
         "phone": "555-555-5555 ext 206",
         "location": "12th floor, suite G"
        },
        {"name":"Adam Munoz",
         "title": "Director of Operations",
         "department": "Executive Board",
         "phone": "555-555-5555 ext 207",
         "location": "12th floor, suite A-1"
        },
        {"name":"Helin Sheridan",
         "title": "Director of External Communications",
         "department": "Executive Board",
         "phone": "555-555-5555 ext 208",
         "location": "12th floor, suite A-2"
        },
        {"name":"Jessie Gilliam",
         "title": "Director of Internal Communications",
         "department": "Executive Board",
         "phone": "555-555-5555 ext 209",
         "location": "12th floor, suite A-3"
        },
        {"name":"Asher Callahan",
         "title": "Director of Workplace Snacks",
         "department": "Executive Board",
         "phone": "555-555-5555 ext 210",
         "location": "12th floor, suite A-4"
        },
        {"name":"Jillian Summer",
         "title": "Director of Sleep",
         "department": "Executive Board",
         "phone": "555-555-5555 ext 211",
         "location": "12th floor, suite A-6"
        },
        {"name":"Enrico Cox",
         "title": "Director of Insanity",
         "department": "Executive Board",
         "phone": "555-555-5555 ext 212",
         "location": "12th floor, suite B-2"
        },
        {"name":"Isador Russell",
         "title": "Director of Parking",
         "department": "Executive Board",
         "phone": "555-555-5555 ext 213",
         "location": "12th floor, suite B-1"
        },
        {"name":"Luc Mccarty",
         "title": "Director of Building Management",
         "department": "Executive Board",
         "phone": "555-555-5555 ext 214",
         "location": "12th floor, suite B-3"
        },
        {"name":"Andrew Mccabe",
         "title": "Deputy Director of Corporation Counsel",
         "department": "Executive Board",
         "phone": "555-555-5555 ext 215",
         "location": "12th floor, suite B-4"
        },
        {"name":"Robert Mueller",
         "title": "Director of Corporation Counsel",
         "department": "Executive Board",
         "phone": "555-555-5555 ext 216",
         "location": "12th floor, suite B-7"
        },
        {"name":"Atlanta Warren",
         "title": "Cheif of Staff",
         "department": "Executive Board",
         "phone": "555-555-5555 ext 217",
         "location": "12th floor, suite B-6"
        },
        {"name":"Mitchel Mcfarland",
         "title": "Director of Doughnuts",
         "department": "Executive Board",
         "phone": "555-555-5555 ext 218",
         "location": "12th floor, suite B-5"
        },
        {"name":"Brittany Ray",
         "title": "Director of Whiteboards",
         "department": "Executive Board",
         "phone": "555-555-5555 ext 219",
         "location": "12th floor, suite C-1"
        },
        {"name":"Griffin Charlton",
         "title": "Director of Fish",
         "department": "Executive Board",
         "phone": "555-555-5555 ext 220",
         "location": "12th floor, suite C-2"
        },
        {"name":"Frank Herbert",
         "title": "Director of Chairs",
         "department": "Executive Board",
         "phone": "555-555-5555 ext 221",
         "location": "12th floor, suite C-3"
        },
        {"name":"Milly Ferreira",
         "title": "Director of Infrastructure",
         "department": "Executive Board",
         "phone": "555-555-5555 ext 222",
         "location": "12th floor, suite C-4"
        },
        {"name":"McKayla Tanner",
         "title": "Director of Budgeting",
         "department": "Executive Board",
         "phone": "555-555-5555 ext 223",
         "location": "12th floor, suite D-1"
        },
        {"name":"Cherry Chamberlain",
         "title": "Director of Projects Management",
         "department": "Executive Board",
         "phone": "555-555-5555 ext 224",
         "location": "12th floor, suite D-2"
        }
]}
